[
  {
    "index": 1,
    "name": "Afghanistan",
    "id": "AFG",
    "capital":"Kabul",
    "latitude":34.53,
    "longitude":69.17
  },
  {
    "index": 2,
    "name": "Angola",
    "id": "AGO",
    "capital":"Luanda",
    "latitude":-8.84,
    "longitude":13.23
  },
  {
    "index": 3,
    "name": "Albania",
    "id": "ALB",
    "capital":"Tirana",
    "latitude":41.33,
    "longitude":19.82
  },
  {
    "index": 4,
    "name": "United Arab Emirates",
    "id": "ARE",
    "capital":"Abu Dhabi",
    "latitude":24.47,
    "longitude":54.37
  },
  {
    "index": 5,
    "name": "Argentina",
    "id": "ARG",
    "capital":"Buenos Aires",
    "latitude":-34.61,
    "longitude":-58.38
  },
  {
    "index": 6,
    "name": "Armenia",
    "id": "ARM",
    "capital":"Yerevan",
    "latitude":40.18,
    "longitude":44.51
  },
  {
    "index": 7,
    "name": "Antarctica",
    "id": "ATA"
  },
  {
    "index": 8,
    "name": "French Southern and Antarctic Lands",
    "id": "ATF",
    "capital":"Port aux Français",
    "latitude":-49.35,
    "longitude":70.22

  },
  {
    "index": 9,
    "name": "Australia",
    "id": "AUS",
    "capital":"Canberra",
    "latitude":-35.28,
    "longitude":149.13
  },
  {
    "index": 10,
    "name": "Austria",
    "id": "AUT",
    "capital":"Vienna",
    "latitude":48.21,
    "longitude":16.37
  },
  {
    "index": 11,
    "name": "Azerbaijan",
    "id": "AZE",
    "capital":"Baku",
    "latitude":40.38,
    "longitude":49.89
  },
  {
    "index": 12,
    "name": "Burundi",
    "id": "BDI",
    "capital":"Bujumbura",
    "latitude":-3.38,
    "longitude":29.36
  },
  {
    "index": 13,
    "name": "Belgium",
    "id": "BEL",
    "capital":"Brussels",
    "latitude":50.85,
    "longitude":4.35
  },
  {
    "index": 14,
    "name": "Benin",
    "id": "BEN",
    "capital":"Porto-Novo",
    "latitude":6.5,
    "longitude":2.6
  },
  {
    "index": 15,
    "name": "Burkina Faso",
    "id": "BFA",
    "capital":"Ouagadougou",
    "latitude":12.37,
    "longitude":-1.53
  },
  {
    "index": 16,
    "name": "Bangladesh",
    "id": "BGD",
    "capital":"Dhaka",
    "latitude":23.71,
    "longitude":90.41
  },
  {
    "index": 17,
    "name": "Bulgaria",
    "id": "BGR",
    "capital":"Sofia",
    "latitude":42.7,
    "longitude":23.32
  },
  {
    "index": 18,
    "name": "The Bahamas",
    "id": "BHS",
    "capital":"Nassau",
    "latitude":25.06,
    "longitude":-77.34
  },
  {
    "index": 19,
    "name": "Bosnia and Herzegovina",
    "id": "BIH",
    "capital":"Sarajevo",
    "latitude":43.85,
    "longitude":18.36
  },
  {
    "index": 20,
    "name": "Belarus",
    "id": "BLR",
    "capital":"Minsk",
    "latitude":53.9,
    "longitude":27.57
  },
  {
    "index": 21,
    "name": "Belize",
    "id": "BLZ",
    "capital":"Belmopan",
    "latitude":17.25,
    "longitude":-88.77
  },
  {
    "index": 22,
    "name": "Bermuda",
    "id": "BMU",
    "capital":"Hamilton",
    "latitude":32.29,
    "longitude":-64.78
  },
  {
    "index": 23,
    "name": "Bolivia",
    "id": "BOL",
    "capital":"Sucre",
    "latitude":-19.03,
    "longitude":-65.26
  },
  {
    "index": 24,
    "name": "Brazil",
    "id": "BRA",
    "capital":"Brasília",
    "latitude":-15.78,
    "longitude":-47.93
  },
  {
    "index": 25,
    "name": "Brunei",
    "id": "BRN",
    "capital":"Bandar Seri Begawan",
    "latitude":4.94,
    "longitude":114.95
  },
  {
    "index": 26,
    "name": "Bhutan",
    "id": "BTN",
    "capital":"Thimphu",
    "latitude":27.47,
    "longitude":89.64
  },
  {
    "index": 27,
    "name": "Botswana",
    "id": "BWA",
    "capital":"Gaborone",
    "latitude":-24.65,
    "longitude":25.91
  },
  {
    "index": 28,
    "name": "Central African Republic",
    "id": "CAF",
    "capital":"Bangui",
    "latitude":4.36,
    "longitude":18.55
  },
  {
    "index": 29,
    "name": "Canada",
    "id": "CAN",
    "capital":"Ottawa",
    "latitude":45.41,
    "longitude":-75.7
  },
  {
    "index": 30,
    "name": "Switzerland",
    "id": "CHE",
    "capital":"Berne",
    "latitude":46.95,
    "longitude":7.45
  },
  {
    "index": 31,
    "name": "Chile",
    "id": "CHL",
    "capital":"Santiago",
    "latitude":-33.46,
    "longitude":-70.65
  },
  {
    "index": 32,
    "name": "China",
    "id": "CHN",
    "capital":"Beijing",
    "latitude":39.91,
    "longitude":116.4
  },
  {
    "index": 33,
    "name": "Ivory Coast",
    "id": "CIV",
    "capital":"Yamoussoukro",
    "latitude":6.82,
    "longitude":-5.28
  },
  {
    "index": 34,
    "name": "Cameroon",
    "id": "CMR",
    "capital":"Yaoundé",
    "latitude":3.87,
    "longitude":11.52
  },
  {
    "index": 35,
    "name": "Democratic Republic of the Congo",
    "id": "COD",
    "capital":"Kinshasa",
    "latitude":-4.32,
    "longitude":15.31
  },
  {
    "index": 36,
    "name": "Republic of the Congo",
    "id": "COG",
    "capital":"Brazzaville",
    "latitude":-4.27,
    "longitude":15.28
  },
  {
    "index": 37,
    "name": "Colombia",
    "id": "COL",
    "capital":"Bogotá",
    "latitude":4.61,
    "longitude":-74.08
  },
  {
    "index": 38,
    "name": "Costa Rica",
    "id": "CRI",
    "capital":"San José",
    "latitude":9.93,
    "longitude":-84.08
  },
  {
    "index": 39,
    "name": "Cuba",
    "id": "CUB",
    "capital":"Havana",
    "latitude":23.13,
    "longitude":-82.38
  },
  {
    "index": 40,
    "name": "Northern Cyprus",
    "id": "-99",
    "capital":"North Nicosia",
    "latitude":35.17,
    "longitude":33.37
  },
  {
    "index": 41,
    "name": "Cyprus",
    "id": "CYP",
    "capital":"Nicosia",
    "latitude":35.17,
    "longitude":33.37
  },
  {
    "index": 42,
    "name": "Czech Republic",
    "id": "CZE",
    "capital":"Prague",
    "latitude":50.09,
    "longitude":14.42
  },
  {
    "index": 43,
    "name": "Germany",
    "id": "DEU",
    "capital":"Berlin",
    "latitude":52.52,
    "longitude":13.41
  },
  {
    "index": 44,
    "name": "Djibouti",
    "id": "DJI",
    "capital":"Djibouti",
    "latitude":11.59,
    "longitude":43.15
  },
  {
    "index": 45,
    "name": "Denmark",
    "id": "DNK",
    "capital":"Copenhagen",
    "latitude":55.68,
    "longitude":12.57
  },
  {
    "index": 46,
    "name": "Dominican Republic",
    "id": "DOM",
    "capital":"Santo Domingo",
    "latitude":18.5,
    "longitude":-69.99
  },
  {
    "index": 47,
    "name": "Algeria",
    "id": "DZA",
    "capital":"Algiers",
    "latitude":36.75,
    "longitude":3.04
  },
  {
    "index": 48,
    "name": "Ecuador",
    "id": "ECU",
    "capital":"Quito",
    "latitude":-0.23,
    "longitude":-78.52
  },
  {
    "index": 49,
    "name": "Egypt",
    "id": "EGY",
    "capital":"Cairo",
    "latitude":30.06,
    "longitude":31.25
  },
  {
    "index": 50,
    "name": "Eritrea",
    "id": "ERI",
    "capital":"Asmara",
    "latitude":15.33,
    "longitude":38.93
  },
  {
    "index": 51,
    "name": "Spain",
    "id": "ESP",
    "capital":"Madrid",
    "latitude":40.42,
    "longitude":-3.7
  },
  {
    "index": 52,
    "name": "Estonia",
    "id": "EST",
    "capital":"Tallinn",
    "latitude":59.44,
    "longitude":24.75
  },
  {
    "index": 53,
    "name": "Ethiopia",
    "id": "ETH",
    "capital":"Addis Ababa",
    "latitude":9.02,
    "longitude":38.75
  },
  {
    "index": 54,
    "name": "Finland",
    "id": "FIN",
    "capital":"Helsinki",
    "latitude":60.17,
    "longitude":24.94
  },
  {
    "index": 55,
    "name": "Fiji",
    "id": "FJI",
    "capital":"Suva",
    "latitude":-18.14,
    "longitude":178.44
  },
  {
    "index": 56,
    "name": "Falkland Islands",
    "id": "FLK",
    "capital":"Stanley",
    "latitude":-51.7,
    "longitude":-57.85
  },
  {
    "index": 57,
    "name": "France",
    "id": "FRA",
    "capital":"Paris",
    "latitude":48.85,
    "longitude":2.35
  },
  {
    "index": 58,
    "name": "Gabon",
    "id": "GAB",
    "capital":"Libreville",
    "latitude":0.39,
    "longitude":9.45
  },
  {
    "index": 59,
    "name": "United Kingdom",
    "id": "GBR",
    "capital":"London",
    "latitude":51.51,
    "longitude":-0.13
  },
  {
    "index": 60,
    "name": "Georgia",
    "id": "GEO",
    "capital":"Tbilisi",
    "latitude":41.69,
    "longitude":44.83
  },
  {
    "index": 61,
    "name": "Ghana",
    "id": "GHA",
    "capital":"Accra",
    "latitude":5.56,
    "longitude":-0.2
  },
  {
    "index": 62,
    "name": "Guinea",
    "id": "GIN",
    "capital":"Conakry",
    "latitude":9.54,
    "longitude":-13.68
  },
  {
    "index": 63,
    "name": "Gambia",
    "id": "GMB",
    "capital":"Banjul",
    "latitude":13.45,
    "longitude":-16.58
  },
  {
    "index": 64,
    "name": "Guinea Bissau",
    "id": "GNB",
    "capital":"Bissau",
    "latitude":11.86,
    "longitude":-15.6
  },
  {
    "index": 65,
    "name": "Equatorial Guinea",
    "id": "GNQ",
    "capital":"Malabo",
    "latitude":3.75,
    "longitude":8.78
  },
  {
    "index": 66,
    "name": "Greece",
    "id": "GRC",
    "capital":"Athens",
    "latitude":37.98,
    "longitude":23.72
  },
  {
    "index": 67,
    "name": "Greenland",
    "id": "GRL",
    "capital":"Nuuk (Godthåb)",
    "latitude":64.18,
    "longitude":-51.72
  },
  {
    "index": 68,
    "name": "Guatemala",
    "id": "GTM",
    "capital":"New Guatemala",
    "latitude":14.64,
    "longitude":-90.51
  },
  {
    "index": 69,
    "name": "French Guiana",
    "id": "GUF",
    "capital":"Cayenne",
    "latitude":4.93,
    "longitude":-52.33
  },
  {
    "index": 70,
    "name": "Guyana",
    "id": "GUY",
    "capital":"Georgetown",
    "latitude":6.8,
    "longitude":-58.16
  },
  {
    "index": 71,
    "name": "Honduras",
    "id": "HND",
    "capital":"Tegucigalpa",
    "latitude":14.08,
    "longitude":-87.21
  },
  {
    "index": 72,
    "name": "Croatia",
    "id": "HRV",
    "capital":"Zagreb",
    "latitude":45.81,
    "longitude":15.98
  },
  {
    "index": 73,
    "name": "Haiti",
    "id": "HTI",
    "capital":"Port-au-Prince",
    "latitude":18.54,
    "longitude":-72.34
  },
  {
    "index": 74,
    "name": "Hungary",
    "id": "HUN",
    "capital":"Budapest",
    "latitude":47.5,
    "longitude":19.04
  },
  {
    "index": 75,
    "name": "Indonesia",
    "id": "IDN",
    "capital":"Jakarta",
    "latitude":-6.21,
    "longitude":106.85
  },
  {
    "index": 76,
    "name": "India",
    "id": "IND",
    "capital":"New Delhi",
    "latitude":28.64,
    "longitude":77.22
  },
  {
    "index": 77,
    "name": "Ireland",
    "id": "IRL",
    "capital":"Dublin",
    "latitude":53.33,
    "longitude":-6.25
  },
  {
    "index": 78,
    "name": "Iran",
    "id": "IRN",
    "capital":"Tehran",
    "latitude":35.69,
    "longitude":51.42
  },
  {
    "index": 79,
    "name": "Iraq",
    "id": "IRQ",
    "capital":"Baghdad",
    "latitude":33.34,
    "longitude":44.4
  },
  {
    "index": 80,
    "name": "Iceland",
    "id": "ISL",
    "capital":"Reykjavík",
    "latitude":64.14,
    "longitude":-21.9
  },
  {
    "index": 81,
    "name": "Israel",
    "id": "ISR",
    "capital":"Jerusalem",
    "latitude":35.23,
    "longitude":31.77
  },
  {
    "index": 82,
    "name": "Italy",
    "id": "ITA",
    "capital":"Rome",
    "latitude":41.89,
    "longitude":12.48
  },
  {
    "index": 83,
    "name": "Jamaica",
    "id": "JAM",
    "capital":"Kingston",
    "latitude":18,
    "longitude":-76.79
  },
  {
    "index": 84,
    "name": "Jordan",
    "id": "JOR",
    "capital":"Amman",
    "latitude":31.96,
    "longitude":35.95
  },
  {
    "index": 85,
    "name": "Japan",
    "id": "JPN",
    "capital":"Edo",
    "latitude":35.69,
    "longitude":139.69
  },
  {
    "index": 86,
    "name": "Kazakhstan",
    "id": "KAZ",
    "capital":"Astana",
    "latitude":51.18,
    "longitude":71.45
  },
  {
    "index": 87,
    "name": "Kenya",
    "id": "KEN",
    "capital":"Nairobi",
    "latitude":-1.28,
    "longitude":36.82
  },
  {
    "index": 88,
    "name": "Kyrgyzstan",
    "id": "KGZ",
    "capital":"Bishkek",
    "latitude":42.87,
    "longitude":74.59
  },
  {
    "index": 89,
    "name": "Cambodia",
    "id": "KHM",
    "capital":"Phnom Penh",
    "latitude":11.56,
    "longitude":104.92
  },
  {
    "index": 90,
    "name": "South Korea",
    "id": "KOR",
    "capital":"Seoul",
    "latitude":37.57,
    "longitude":126.98
  },
  {
    "index": 91,
    "name": "Kosovo",
    "id": "CS-KM",
    "capital":"Pristina",
    "latitude":42.67,
    "longitude":21.17
  },
  {
    "index": 92,
    "name": "Kuwait",
    "id": "KWT",
    "capital":"Kuwait City",
    "latitude":29.37,
    "longitude":47.98
  },
  {
    "index": 93,
    "name": "Laos",
    "id": "LAO",
    "capital":"Vientiane",
    "latitude":17.97,
    "longitude":102.6
  },
  {
    "index": 94,
    "name": "Lebanon",
    "id": "LBN",
    "capital":"Beirut",
    "latitude":33.89,
    "longitude":35.49
  },
  {
    "index": 95,
    "name": "Liberia",
    "id": "LBR",
    "capital":"Monrovia",
    "latitude":6.3,
    "longitude":-10.8
  },
  {
    "index": 96,
    "name": "Libya",
    "id": "LBY",
    "capital":"Tripoli",
    "latitude":32.88,
    "longitude":13.19
  },
  {
    "index": 97,
    "name": "Sri Lanka",
    "id": "LKA",
    "capital":"Colombo",
    "latitude":6.93,
    "longitude":79.85
  },
  {
    "index": 98,
    "name": "Lesotho",
    "id": "LSO",
    "capital":"Maseru",
    "latitude":-29.32,
    "longitude":27.48
  },
  {
    "index": 99,
    "name": "Lithuania",
    "id": "LTU",
    "capital":"Vilnius",
    "latitude":54.69,
    "longitude":25.28
  },
  {
    "index": 100,
    "name": "Luxembourg",
    "id": "LUX",
    "capital":"Luxembourg",
    "latitude":49.61,
    "longitude":6.13
  },
  {
    "index": 101,
    "name": "Latvia",
    "id": "LVA",
    "capital":"Riga",
    "latitude":56.95,
    "longitude":24.11
  },
  {
    "index": 102,
    "name": "Morocco",
    "id": "MAR",
    "capital":"Rabat",
    "latitude":34.01,
    "longitude":-6.83
  },
  {
    "index": 103,
    "name": "Moldova",
    "id": "MDA",
    "capital":"Chişinău",
    "latitude":47.01,
    "longitude":28.86
  },
  {
    "index": 104,
    "name": "Madagascar",
    "id": "MDG",
    "capital":"Antananarivo",
    "latitude":-18.91,
    "longitude":47.54
  },
  {
    "index": 105,
    "name": "Mexico",
    "id": "MEX",
    "capital":"Mexico City",
    "latitude":19.43,
    "longitude":-99.13
  },
  {
    "index": 106,
    "name": "Macedonia",
    "id": "MKD",
    "capital":"Skopje",
    "latitude":42,
    "longitude":21.43
  },
  {
    "index": 107,
    "name": "Mali",
    "id": "MLI",
    "capital":"Bamako",
    "latitude":12.65,
    "longitude":-8
  },
  {
    "index": 108,
    "name": "Malta",
    "id": "MLT",
    "capital":"Valletta",
    "latitude":35.9,
    "longitude":14.51
  },
  {
    "index": 109,
    "name": "Myanmar",
    "id": "MMR",
    "capital":"Nay Pyi Taw",
    "latitude":19.75,
    "longitude":96.13
  },
  {
    "index": 110,
    "name": "Montenegro",
    "id": "MNE",
    "capital":"Podgorica",
    "latitude":42.44,
    "longitude":19.26
  },
  {
    "index": 111,
    "name": "Mongolia",
    "id": "MNG",
    "capital":"Ulan Bator",
    "latitude":47.91,
    "longitude":106.88
  },
  {
    "index": 112,
    "name": "Mozambique",
    "id": "MOZ",
    "capital":"Maputo",
    "latitude":-25.97,
    "longitude":32.58
  },
  {
    "index": 113,
    "name": "Mauritania",
    "id": "MRT",
    "capital":"Nouakchott",
    "latitude":18.09,
    "longitude":-15.98
  },
  {
    "index": 114,
    "name": "Malawi",
    "id": "MWI",
    "capital":"Lilongwe",
    "latitude":-13.97,
    "longitude":33.79
  },
  {
    "index": 115,
    "name": "Malaysia",
    "id": "MYS",
    "capital":"Kuala Lumpur",
    "latitude":3.14,
    "longitude":101.69
  },
  {
    "index": 116,
    "name": "Namibia",
    "id": "NAM",
    "capital":"Windhoek",
    "latitude":-22.56,
    "longitude":17.08
  },
  {
    "index": 117,
    "name": "New Caledonia",
    "id": "NCL",
    "capital":"Noumea",
    "latitude":-22.28,
    "longitude":166.46
  },
  {
    "index": 118,
    "name": "Niger",
    "id": "NER",
    "capital":"Niamey",
    "latitude":13.51,
    "longitude":2.11
  },
  {
    "index": 119,
    "name": "Nigeria",
    "id": "NGA",
    "capital":"Abuja",
    "latitude":9.07,
    "longitude":7.48
  },
  {
    "index": 120,
    "name": "Nicaragua",
    "id": "NIC",
    "capital":"Managua",
    "latitude":12.13,
    "longitude":-86.25
  },
  {
    "index": 121,
    "name": "Netherlands",
    "id": "NLD",
    "capital":"Amsterdam",
    "latitude":52.37,
    "longitude":4.89
  },
  {
    "index": 122,
    "name": "Norway",
    "id": "NOR",
    "capital":"Oslo",
    "latitude":59.91,
    "longitude":10.75
  },
  {
    "index": 123,
    "name": "Nepal",
    "id": "NPL",
    "capital":"Kathmandu",
    "latitude":27.7,
    "longitude":85.32
  },
  {
    "index": 124,
    "name": "New Zealand",
    "id": "NZL",
    "capital":"Wellington",
    "latitude":-41.29,
    "longitude":174.78
  },
  {
    "index": 125,
    "name": "Oman",
    "id": "OMN",
    "capital":"Muscat",
    "latitude":23.61,
    "longitude":58.59
  },
  {
    "index": 126,
    "name": "Pakistan",
    "id": "PAK",
    "capital":"Islamabad",
    "latitude":33.72,
    "longitude":73.04
  },
  {
    "index": 127,
    "name": "Panama",
    "id": "PAN",
    "capital":"Panama City",
    "latitude":8.99,
    "longitude":-79.52
  },
  {
    "index": 128,
    "name": "Peru",
    "id": "PER",
    "capital":"Lima",
    "latitude":-12.04,
    "longitude":-77.03
  },
  {
    "index": 129,
    "name": "Philippines",
    "id": "PHL",
    "capital":"Manila",
    "latitude":14.6,
    "longitude":120.98
  },
  {
    "index": 130,
    "name": "Papua New Guinea",
    "id": "PNG",
    "capital":"Port Moresby",
    "latitude":-9.44,
    "longitude":147.18
  },
  {
    "index": 131,
    "name": "Poland",
    "id": "POL",
    "capital":"Warsaw",
    "latitude":52.23,
    "longitude":21.01
  },
  {
    "index": 132,
    "name": "Puerto Rico",
    "id": "PRI",
    "capital":"San Juan",
    "latitude":18.47,
    "longitude":-66.11
  },
  {
    "index": 133,
    "name": "North Korea",
    "id": "PRK",
    "capital":"Pyongyang",
    "latitude":39.03,
    "longitude":125.75
  },
  {
    "index": 134,
    "name": "Portugal",
    "id": "PRT",
    "capital":"Lisbon",
    "latitude":38.72,
    "longitude":-9.13
  },
  {
    "index": 135,
    "name": "Paraguay",
    "id": "PRY",
    "capital":"Asunción",
    "latitude":-25.3,
    "longitude":-57.64
  },
  {
    "index": 136,
    "name": "Qatar",
    "id": "QAT",
    "capital":"Doha",
    "latitude":25.28,
    "longitude":51.52
  },
  {
    "index": 137,
    "name": "Romania",
    "id": "ROU",
    "capital":"Bucharest",
    "latitude":44.43,
    "longitude":26.11
  },
  {
    "index": 138,
    "name": "Russia",
    "id": "RUS",
    "capital":"Moscow",
    "latitude":55.75,
    "longitude":37.62
  },
  {
    "index": 139,
    "name": "Rwanda",
    "id": "RWA",
    "capital":"Kigali",
    "latitude":-1.95,
    "longitude":30.06
  },
  {
    "index": 140,
    "name": "Western Sahara",
    "id": "ESH",
    "capital":"El Aaiún",
    "latitude":27.16,
    "longitude":-13.2
  },
  {
    "index": 141,
    "name": "Saudi Arabia",
    "id": "SAU",
    "capital":"Riyadh",
    "latitude":24.69,
    "longitude":46.72
  },
  {
    "index": 142,
    "name": "Sudan",
    "id": "SDN",
    "capital":"Khartoum",
    "latitude":15.55,
    "longitude":32.53
  },
  {
    "index": 143,
    "name": "South Sudan",
    "id": "SDS",
    "capital":"Juba",
    "latitude":4.85,
    "longitude":31.58
  },
  {
    "index": 144,
    "name": "Senegal",
    "id": "SEN",
    "capital":"Dakar",
    "latitude":14.69,
    "longitude":-17.44
  },
  {
    "index": 145,
    "name": "Solomon Islands",
    "id": "SLB",
    "capital":"Honiara",
    "latitude":-9.43,
    "longitude":159.95
  },
  {
    "index": 146,
    "name": "Sierra Leone",
    "id": "SLE",
    "capital":"Freetown",
    "latitude":8.48,
    "longitude":-13.23
  },
  {
    "index": 147,
    "name": "El Salvador",
    "id": "SLV",
    "capital":"San Salvador",
    "latitude":13.69,
    "longitude":-89.19
  },
  {
    "index": 148,
    "name": "Somaliland",
    "id": "-99",
    "capital":"Hargeisa",
    "latitude":9.56,
    "longitude":44.06
  },
  {
    "index": 149,
    "name": "Somalia",
    "id": "SOM",
    "capital":"Mogadishu",
    "latitude":2.04,
    "longitude":45.34
  },
  {
    "index": 150,
    "name": "Republic of Serbia",
    "id": "SRB",
    "capital":"Belgrade",
    "latitude":44.8,
    "longitude":20.47
  },
  {
    "index": 151,
    "name": "Suriname",
    "id": "SUR",
    "capital":"Paramaribo",
    "latitude":5.87,
    "longitude":-55.17
  },
  {
    "index": 152,
    "name": "Slovakia",
    "id": "SVK",
    "capital":"Bratislava",
    "latitude":48.15,
    "longitude":17.11
  },
  {
    "index": 153,
    "name": "Slovenia",
    "id": "SVN",
    "capital":"Ljubljana",
    "latitude":46.05,
    "longitude":14.51
  },
  {
    "index": 154,
    "name": "Sweden",
    "id": "SWE",
    "capital":"Stockholm",
    "latitude":59.33,
    "longitude":18.06
  },
  {
    "index": 155,
    "name": "Swaziland",
    "id": "SWZ",
    "capital":"Mbabane",
    "latitude":-26.32,
    "longitude":31.13
  },
  {
    "index": 156,
    "name": "Syria",
    "id": "SYR",
    "capital":"Damascus",
    "latitude":33.51,
    "longitude":36.29
  },
  {
    "index": 157,
    "name": "Chad",
    "id": "TCD",
    "capital":"N'Djamena",
    "latitude":12.11,
    "longitude":15.04
  },
  {
    "index": 158,
    "name": "Togo",
    "id": "TGO",
    "capital":"Lomé",
    "latitude":6.14,
    "longitude":1.21
  },
  {
    "index": 159,
    "name": "Thailand",
    "id": "THA",
    "capital":"Bangkok",
    "latitude":13.75,
    "longitude":100.5
  },
  {
    "index": 160,
    "name": "Tajikistan",
    "id": "TJK",
    "capital":"Dushanbe",
    "latitude":38.54,
    "longitude":68.78
  },
  {
    "index": 161,
    "name": "Turkmenistan",
    "id": "TKM",
    "capital":"Ashkhabad",
    "latitude":37.95,
    "longitude":58.38
  },
  {
    "index": 162,
    "name": "East Timor",
    "id": "TLS",
    "capital":"Dili",
    "latitude":-8.56,
    "longitude":125.57
  },
  {
    "index": 163,
    "name": "Trinidad and Tobago",
    "id": "TTO",
    "capital":"Port of Spain",
    "latitude":10.67,
    "longitude":-61.52
  },
  {
    "index": 164,
    "name": "Tunisia",
    "id": "TUN",
    "capital":"Tunis",
    "latitude":36.82,
    "longitude":10.17
  },
  {
    "index": 165,
    "name": "Turkey",
    "id": "TUR",
    "capital":"Ankara",
    "latitude":39.92,
    "longitude":32.85
  },
  {
    "index": 166,
    "name": "Taiwan",
    "id": "TWN",
    "capital":"Taipei",
    "latitude":25.05,
    "longitude":121.53
  },
  {
    "index": 167,
    "name": "United Republic of Tanzania",
    "id": "TZA",
    "capital":"Dodoma",
    "latitude":-6.17,
    "longitude":35.74
  },
  {
    "index": 168,
    "name": "Uganda",
    "id": "UGA",
    "capital":"Kampala",
    "latitude":0.32,
    "longitude":32.58
  },
  {
    "index": 169,
    "name": "Ukraine",
    "id": "UKR",
    "capital":"Kiev",
    "latitude":50.45,
    "longitude":30.52
  },
  {
    "index": 170,
    "name": "Uruguay",
    "id": "URY",
    "capital":"Montevideo",
    "latitude":-34.83,
    "longitude":-56.17
  },
  {
    "index": 171,
    "name": "United States of America",
    "id": "USA",
    "capital":"Washington",
    "latitude":38.9,
    "longitude":-77.04
  },
  {
    "index": 172,
    "name": "Uzbekistan",
    "id": "UZB",
    "capital":"Tashkent",
    "latitude":41.26,
    "longitude":69.22
  },
  {
    "index": 173,
    "name": "Venezuela",
    "id": "VEN",
    "capital":"Caracas",
    "latitude":10.49,
    "longitude":-66.88
  },
  {
    "index": 174,
    "name": "Vietnam",
    "id": "VNM",
    "capital":"Hanoi",
    "latitude":21.02,
    "longitude":105.84
  },
  {
    "index": 175,
    "name": "Vanuatu",
    "id": "VUT",
    "capital":"Port Vila",
    "latitude":-17.73,
    "longitude":168.32
  },
  {
    "index": 176,
    "name": "West Bank",
    "id": "PSE",
    "capital":"Jenin",
    "latitude":32.46,
    "longitude":35.30
  },
  {
    "index": 177,
    "name": "Yemen",
    "id": "YEM",
    "capital":"Sanaa",
    "latitude":15.35,
    "longitude":44.21
  },
  {
    "index": 178,
    "name": "South Africa",
    "id": "ZAF",
    "capital":"Pretoria",
    "latitude":-25.74,
    "longitude":28.19
  },
  {
    "index": 179,
    "name": "Zambia",
    "id": "ZMB",
    "capital":"Lusaka",
    "latitude":-15.41,
    "longitude":28.29
  },
  {
    "index": 180,
    "name": "Zimbabwe",
    "id": "ZWE",
    "capital":"Harare",
    "latitude":-17.83,
    "longitude":31.05
  }
]
